[{"name": "Rourke Keith Dr", "address": "11400 University Ave, Edmonton, AB T6G 1Z1", "city": "Edmonton", "state": "Alberta", "state_code": "", "phone": "+1 780-407-5800", "website": "", "rating": 4.6, "reviews": 10, "place_id": "ChIJz8nzAh4ioFMRNONfN54cqtM", "latitude": 53.5187227, "longitude": -113.5271755, "subtypes": "Urologist"}, {"name": "Todd Gerald T Dr", "address": "11400 University Ave, Edmonton, AB T5H 4B9", "city": "Edmonton", "state": "Alberta", "state_code": "", "phone": "+1 780-407-5800", "website": "https://www.albertahealthservices.ca/findhealth/facility.aspx%3Fid%3D1050704", "rating": 5, "reviews": 2, "place_id": "ChIJVVVVVawjoFMRsqAX3Hzh4t4", "latitude": 53.51894069999999, "longitude": -113.5266815, "subtypes": "Urologist"}, {"name": "Alphin Talal Dr", "address": "3295 Dunmore Rd SE, Medicine Hat, AB T1B 3R2", "city": "Medicine Hat", "state": "Alberta", "state_code": "", "phone": "+1 403-528-2912", "website": "", "rating": 3.7, "reviews": 15, "place_id": "ChIJo9vFf5otE1MR4tKoQBlTaKg", "latitude": 50.0056018, "longitude": -110.6432266, "subtypes": "Urologist"}, {"name": "Dr. Devin Douglas Pugsley", "address": "3947 50a Ave #208, Red Deer, AB T4N 6V7", "city": "Red Deer", "state": "Alberta", "state_code": "", "phone": "+1 403-356-9816", "website": "", "rating": 3.3, "reviews": 12, "place_id": "ChIJj1VOxyBUdFMR5J8xTtATbMw", "latitude": 52.2607051, "longitude": -113.8160017, "subtypes": "Urologist"}, {"name": "B Reikie MD", "address": "3947 50a Ave #208, Red Deer, AB T4N 6V7", "city": "Red Deer", "state": "Alberta", "state_code": "", "phone": "+1 403-356-9816", "website": "", "rating": 4.1, "reviews": 8, "place_id": "ChIJN6K5ESFUdFMREhT1p3TMgJw", "latitude": 52.2610207, "longitude": -113.8159468, "subtypes": "Urologist"}]