[{"name": "Dr. Luc Boudreau", "address": "1155 Shediac Rd, Moncton, NB E1A 7B6", "city": "Moncton", "state": "New Brunswick", "state_code": "", "phone": "+1 506-384-9715", "website": "", "rating": 3.3, "reviews": 7, "place_id": "ChIJMzNjX5u-oEwRi_DrADNvgPQ", "latitude": 46.1190742, "longitude": -64.71927629999999, "subtypes": "Urologist"}, {"name": "Dr Troy Sitland Urology", "address": "100 Arden St, Moncton, NB E1C 4B7", "city": "Moncton", "state": "New Brunswick", "state_code": "", "phone": "+1 506-857-4780", "website": "http://monctonurology.com/", "rating": 5, "reviews": 4, "place_id": "ChIJwUVAs824oEwRtoEgNT8UfdU", "latitude": 46.1059726, "longitude": -64.8062559, "subtypes": "Urologist"}, {"name": "Fredericton Urology Clinic", "address": "1015 Regent St Suite 207, Fredericton, NB E3B 3Y9", "city": "Fredericton", "state": "New Brunswick", "state_code": "", "phone": "+1 506-457-4783", "website": "http://frederictonurology.com/", "rating": 1, "reviews": 1, "place_id": "ChIJo-hBTRQipEwRWYHY6oGFHXU", "latitude": 45.94245799999999, "longitude": -66.65567519999999, "subtypes": "Urology clinic"}, {"name": "Dr. Hudson Jill", "address": "1015 Regent St, Fredericton, NB E3B 6H5", "city": "Fredericton", "state": "New Brunswick", "state_code": "", "phone": "+1 506-459-6601", "website": "", "rating": 5, "reviews": 6, "place_id": "ChIJI2wjOaEYpEwRE7vYDWga4zg", "latitude": 45.9426509, "longitude": -66.6554333, "subtypes": "Urologist"}, {"name": "Dr. Ngo D Sieu", "address": "1300 St Peter Ave, Bathurst, NB E2A 1A3", "city": "Bathurst", "state": "New Brunswick", "state_code": "", "phone": "+1 506-546-3388", "website": "", "rating": 3.7, "reviews": 3, "place_id": "ChIJ4d7gsNqTmEwRe1_DlaLeBsM", "latitude": 47.6401285, "longitude": -65.67797519999999, "subtypes": "Urologist"}, {"name": "Dr. Sebastien Daigle", "address": "1750 Sunset Dr, Bathurst, NB E2A 3G2", "city": "Bathurst", "state": "New Brunswick", "state_code": "", "phone": "+1 506-226-3797", "website": "", "rating": 4, "reviews": 4, "place_id": "ChIJ4d7gsNqTmEwR_qulMOozjFM", "latitude": 47.6398708, "longitude": -65.6787009, "subtypes": "Urologist"}, {"name": "Dr. Hermen Vonkeman", "address": "135 Henry St, Miramichi, NB E1Z 2N5", "city": "Miramichi", "state": "New Brunswick", "state_code": "", "phone": "+1 506-627-7007", "website": "", "rating": 5, "reviews": 1, "place_id": "ChIJp4AD2rqKoUwRWSH0g-6Vn8w", "latitude": 47.000912, "longitude": -65.5656022, "subtypes": "Urologist"}]