[{"name": "Dr. Dean Elterman", "address": "399 Bathurst St, Toronto, ON M5T 2S8", "city": "Toronto", "state": "Ontario", "state_code": "", "phone": "+1 416-603-5800", "website": "http://uuaurology.com/doctors/dean-elterman/", "rating": 2.8, "reviews": 28, "place_id": "ChIJPY7p_eg0K4gRebVEoWtOPws", "latitude": 43.6534547, "longitude": -79.40596099999999, "subtypes": "Urologist"}, {"name": "Vasectomy Reversal & Fertility Clinic Center Dr Kirk Lo", "address": "Mount Sinai Hospital, 60 Murray St, Toronto, ON M5T 3L9", "city": "Toronto", "state": "Ontario", "state_code": "", "phone": "+1 416-586-4613", "website": "https://vasectomyreversal.ca/", "rating": 4.4, "reviews": 14, "place_id": "ChIJ1QxdYsg0K4gRlpiBXB3pA-Q", "latitude": 43.6580709, "longitude": -79.39175949999999, "subtypes": "Urologist"}, {"name": "University Urology Associates", "address": "123 Edward St, Toronto, ON M5G 1E2", "city": "Toronto", "state": "Ontario", "state_code": "", "phone": "+1 416-979-9000", "website": "http://uuaurology.com/", "rating": 2.5, "reviews": 13, "place_id": "ChIJCU_naMk0K4gRnF-BqXDE0Fc", "latitude": 43.655638, "longitude": -79.386811, "subtypes": "Urologist"}, {"name": "Barrie Urology Group", "address": "1 Quarry Ridge Rd #206, Barrie, ON L4M 7G1", "city": "Barrie", "state": "Ontario", "state_code": "", "phone": "+1 705-728-2280", "website": "https://barrieurology.ca/", "rating": 4, "reviews": 25, "place_id": "ChIJZQFfoXmjKogRd4iZE7uafd8", "latitude": 44.4149498, "longitude": -79.6587184, "subtypes": "Urology clinic"}, {"name": "Dr. Dylan Hoare - General and Reconstructive Urology", "address": "1 Quarry Ridge Rd Suite 203, Barrie, ON L4M 7G1", "city": "Barrie", "state": "Ontario", "state_code": "", "phone": "+1 705-727-0551", "website": "http://www.dylanhoaremd.ca/", "rating": 5, "reviews": 15, "place_id": "ChIJSYhDXvCjKogRVY22gk1BC1c", "latitude": 44.415031, "longitude": -79.6587199, "subtypes": "Urologist"}, {"name": "Markham Urology", "address": "379 Church St #304, Markham, ON L6B 0T1", "city": "Markham", "state": "Ontario", "state_code": "", "phone": "+1 905-472-7120", "website": "http://www.msh.on.ca/", "rating": 3.4, "reviews": 46, "place_id": "ChIJdf4pbdrX1IkRyegOn5JkZck", "latitude": 43.88479239999999, "longitude": -79.2318434, "subtypes": "Urology clinic"}, {"name": "Dr. Dean Elterman", "address": "399 Bathurst St, Toronto, ON M5T 2S8", "city": "Toronto", "state": "Ontario", "state_code": "", "phone": "+1 416-603-5800", "website": "http://uuaurology.com/doctors/dean-elterman/", "rating": 2.8, "reviews": 28, "place_id": "ChIJPY7p_eg0K4gRebVEoWtOPws", "latitude": 43.6534547, "longitude": -79.40596099999999, "subtypes": "Urologist"}, {"name": "A. Grabowski", "address": "95 Bayly St W, Ajax, ON L1S 3V4", "city": "Ajax", "state": "Ontario", "state_code": "", "phone": "+1 905-426-9426", "website": "", "rating": 3.6, "reviews": 15, "place_id": "ChIJDWnN5dnf1IkRYFIw7JZAJdw", "latitude": 43.8423765, "longitude": -79.02125079999999, "subtypes": "Urologist"}, {"name": "Dr. Zachary Klinghoffer", "address": "2863 Ellesmere Rd #402, Toronto, ON M1E 5E9", "city": "Toronto", "state": "Ontario", "state_code": "", "phone": "+1 416-479-7680", "website": "http://www.centraleasturology.com/", "rating": 4.8, "reviews": 192, "place_id": "ChIJFTpMtinR1IkRElwdEEXr_Ug", "latitude": 43.7805146, "longitude": -79.2049826, "subtypes": "Urologist"}, {"name": "Smith Steven Dr", "address": "95 Bayly St W, Ajax, ON L1S 7K8", "city": "Ajax", "state": "Ontario", "state_code": "", "phone": "+1 905-426-9426", "website": "", "rating": 4.1, "reviews": 14, "place_id": "ChIJbYVO5Nnf1IkRWpmpaW6uOVs", "latitude": 43.84223009999999, "longitude": -79.02100539999999, "subtypes": "Urologist"}, {"name": "Dr Greg Trottier Urologist", "address": "The Court at Rouge Valley Centenary Hospital, 2863 Ellesmere Rd #402, Scarborough, ON M1E 5E9", "city": "Scarborough", "state": "ON", "state_code": "", "phone": "+1 647-350-1155", "website": "https://www.scarboroughurology.com/our-team", "rating": 4.8, "reviews": 16, "place_id": "ChIJV_-9c7bQ1IkRLHZIf_xUy9I", "latitude": 43.7804307, "longitude": -79.2045677, "subtypes": "Urologist"}, {"name": "Dr. Jonathan E. Chan Urologic Surgeon \u2022 NanoKnife \u2022 Rezum \u2022 ExactVu Micro-Ultrasound \u2022 MRI Prostate Biopsy \u2022 PhalloFILL", "address": "385 Silver Star Blvd Suite 308, Toronto, ON M1V 0E3", "city": "Toronto", "state": "Ontario", "state_code": "", "phone": "+1 647-776-3383", "website": "https://www.atriumsurgical.ca/prostate/", "rating": 4.6, "reviews": 151, "place_id": "ChIJSdKvaJDT1IkRmLKPQD5GOIA", "latitude": 43.8151507, "longitude": -79.2952327, "subtypes": "Urologist"}, {"name": "Buckley Roger J Dr", "address": "1333 Sheppard Ave E, North York, ON M2J 1V1", "city": "CA", "state": "Ontario", "state_code": "", "phone": "+1 416-499-1333", "website": "", "rating": 4.8, "reviews": 10, "place_id": "ChIJA3gD68DS1IkRjxaUEsiXbbQ", "latitude": 43.771417, "longitude": -79.3612705, "subtypes": "Urologist"}, {"name": "Kell John Dr", "address": "840 Coxwell Ave, East York, ON M4C 2V3", "city": "East York", "state": "Ontario", "state_code": "", "phone": "+1 416-421-4499", "website": "", "rating": 4.5, "reviews": 11, "place_id": "ChIJudMUoWfM1IkRAmu5sHt14cI", "latitude": 43.6900392, "longitude": -79.3265799, "subtypes": "Urologist"}, {"name": "Dr. Jafar Hussaen Urology", "address": "2863 Ellesmere Rd Suite 406, Scarborough, ON M1E 5E9", "city": "CA", "state": "Ontario", "state_code": "", "phone": "+1 416-266-9588", "website": "https://www.centraleasturology.com/", "rating": 3, "reviews": 13, "place_id": "ChIJY5kfet7R1IkRuuknUTOPpPM", "latitude": 43.77996659999999, "longitude": -79.20519329999999, "subtypes": "Urologist"}, {"name": "Dr. Ronald Kodama", "address": "2075 Bayview Ave, Toronto, ON M4G 0A2", "city": "Toronto", "state": "Ontario", "state_code": "", "phone": "+1 416-480-5956", "website": "http://sunnybrook.ca/contact/", "rating": 3.9, "reviews": 7, "place_id": "ChIJrdIIUCzN1IkRZbWpz2uMtgY", "latitude": 43.72157139999999, "longitude": -79.3745148, "subtypes": "Urologist"}, {"name": "Dr. David Michael Hajek", "address": "1333 Sheppard Ave E #328, North York, ON M2J 1V1", "city": "North York", "state": "Ontario", "state_code": "", "phone": "+1 416-494-7900", "website": "", "rating": 4.7, "reviews": 19, "place_id": "ChIJNzeUjcDS1IkRu-b0r2V-lZs", "latitude": 43.7713996, "longitude": -79.3612919, "subtypes": "Urologist"}, {"name": "University Urology Associates", "address": "123 Edward St, Toronto, ON M5G 1E2", "city": "Toronto", "state": "Ontario", "state_code": "", "phone": "+1 416-979-9000", "website": "http://uuaurology.com/", "rating": 2.5, "reviews": 13, "place_id": "ChIJCU_naMk0K4gRnF-BqXDE0Fc", "latitude": 43.655638, "longitude": -79.386811, "subtypes": "Urologist"}, {"name": "Dr. James Ross", "address": "4190 Finch Ave E #314, Scarborough, ON M1S 4T7", "city": "Scarborough", "state": "Ontario", "state_code": "", "phone": "+1 416-332-8737", "website": "https://register.cpso.on.ca/physician-info/%3Fcpsonum%3D109009", "rating": 4.6, "reviews": 11, "place_id": "ChIJf5XGnObR1IkRIprdrl3EBUI", "latitude": 43.8039907, "longitude": -79.286999, "subtypes": "Urologist"}, {"name": "Markham Urology", "address": "379 Church St #304, Markham, ON L6B 0T1", "city": "Markham", "state": "Ontario", "state_code": "", "phone": "+1 905-472-7120", "website": "http://www.msh.on.ca/", "rating": 3.4, "reviews": 46, "place_id": "ChIJdf4pbdrX1IkRyegOn5JkZck", "latitude": 43.88479239999999, "longitude": -79.2318434, "subtypes": "Urology clinic"}, {"name": "Dr. Shawn J. Soon", "address": "3410 Sheppard Ave E Suite 303, Scarborough, ON M1T 3K4", "city": "Scarborough", "state": "Ontario", "state_code": "", "phone": "+1 416-628-4997", "website": "http://soonurology.com/", "rating": 3.4, "reviews": 23, "place_id": "ChIJJ3v0M3fR1IkRw-BOO_qN3E4", "latitude": 43.7793012, "longitude": -79.3070833, "subtypes": "Urologist"}, {"name": "Vlaovic Peter Dr", "address": "650 Sammon Ave Suit # 305 (3rd Floor, East York, ON M4C 5M5", "city": "East York", "state": "Ontario", "state_code": "", "phone": "+1 416-465-6008", "website": "https://www.tehn.ca/health-professionals/dr-peter-vlaovic", "rating": 4, "reviews": 24, "place_id": "ChIJ0a6BemjM1IkRrdIDXXwBThw", "latitude": 43.6892873, "longitude": -79.3241525, "subtypes": "Urologist"}, {"name": "Dr. Rob Stewart", "address": "61 Queen St E, Toronto, ON M5C 2T2", "city": "Toronto", "state": "Ontario", "state_code": "", "phone": "+1 416-867-3686", "website": "http://www.stmichaelshospital.com/programs/renaltransplant/contact.php", "rating": 1, "reviews": 2, "place_id": "ChIJR7JRjDPL1IkRn6reK1bkmoc", "latitude": 43.6528094, "longitude": -79.37634729999999, "subtypes": "Urologist"}, {"name": "Society Of Urologic Surgeons Of Ontario", "address": "3030 Lawrence Ave E, Scarborough, ON M1P 2T7", "city": "Scarborough", "state": "Ontario", "state_code": "", "phone": "+1 416-438-9948", "website": "", "rating": "", "reviews": "", "place_id": "ChIJh3RIfMvR1IkRwnZU3Wyyt34", "latitude": 43.7565097, "longitude": -79.24794639999999, "subtypes": "Urologist"}, {"name": "Dr. Christopher B. Allard", "address": "460 Brant St Unit 12, Burlington, ON L7R 4B6", "city": "Burlington", "state": "Ontario", "state_code": "", "phone": "+1 905-635-8103", "website": "http://www.burlingtonurology.ca/", "rating": 4.3, "reviews": 12, "place_id": "ChIJr9EbfHufLIgRC7eiBq0qfPk", "latitude": 43.3267055, "longitude": -79.7998617, "subtypes": "Urologist"}, {"name": "Sowery Richard Dr", "address": "460 Brant St, Burlington, ON L7R 4B6", "city": "Burlington", "state": "Ontario", "state_code": "", "phone": "+1 905-637-3900", "website": "http://www.burlingtonurology.ca/", "rating": 3.7, "reviews": 19, "place_id": "ChIJL1r4XTueLIgRG0l2rnMMv_c", "latitude": 43.3266672, "longitude": -79.7998709, "subtypes": "Urologist"}, {"name": "Circumcision Burlington - Gentle Procedures Clinic", "address": "672 Brant St #200, Burlington, ON L7R 2H3", "city": "Burlington", "state": "Ontario", "state_code": "", "phone": "+1 289-389-3748", "website": "https://gentleprocedureshamilton.ca/", "rating": 4.5, "reviews": 39, "place_id": "ChIJozmd9flhK4gRjx7tAW5AzXI", "latitude": 43.33081869999999, "longitude": -79.8060873, "subtypes": "Urology clinic"}, {"name": "G K Jansz MD - Urologist", "address": "3155 Harvester Rd, Burlington, ON L7N 3V2", "city": "Burlington", "state": "Ontario", "state_code": "", "phone": "+1 905-681-3030", "website": "", "rating": 3.5, "reviews": 20, "place_id": "ChIJl9APCLhhK4gRMITdLuKKoTA", "latitude": 43.3541897, "longitude": -79.7974097, "subtypes": "Urologist"}, {"name": "Dr. Michael L. Pianezza", "address": "2120 REGENT ST SOUTH Unit #4, 2120 Regent St Unit #4, Greater Sudbury, ON P3E 3Z9", "city": "Greater Sudbury", "state": "ON", "state_code": "", "phone": "+1 705-222-6444", "website": "http://www.sudburyprostatecancer.org/", "rating": 4.2, "reviews": 5, "place_id": "ChIJNQJg6iBVLk0ROz28D_q49X4", "latitude": 46.4511628, "longitude": -80.996419, "subtypes": "Urologist"}, {"name": "Dr Joseph F D'aloisio", "address": "83 Larch St, Sudbury, ON P3E 1B8", "city": "Sudbury", "state": "Ontario", "state_code": "", "phone": "+1 705-522-1046", "website": "", "rating": 1, "reviews": 1, "place_id": "ChIJM5X0a-iqL00RxnS-Mp8nHeo", "latitude": 46.4910851, "longitude": -80.993579, "subtypes": "Urologist"}, {"name": "Kitchener Urology Partners", "address": "Suite 202, 148 Manitou Dr, Kitchener, ON N2C 1L3", "city": "Kitchener", "state": "Ontario", "state_code": "", "phone": "+1 519-954-2370", "website": "", "rating": 2.4, "reviews": 68, "place_id": "ChIJCXmsBGf0K4gRq4uVDSbfwlE", "latitude": 43.4102497, "longitude": -80.4484236, "subtypes": "Urology clinic"}, {"name": "Kitchener urology associates", "address": "148 Manitou Dr, Kitchener, ON N2C 1L3", "city": "Kitchener", "state": "Ontario", "state_code": "", "phone": "+1 519-503-5973", "website": "", "rating": 5, "reviews": 2, "place_id": "ChIJhcBOewCLK4gRg-iCl7_FGY4", "latitude": 43.4102244, "longitude": -80.4484634, "subtypes": "Urologist"}, {"name": "Urology Associates", "address": "535 Park St Unit 4, Kitchener, ON N2G 1N8", "city": "Kitchener", "state": "Ontario", "state_code": "", "phone": "+1 519-578-1294", "website": "", "rating": 2.8, "reviews": 26, "place_id": "ChIJ71qucN31K4gRhS8uklBx3Gk", "latitude": 43.4563257, "longitude": -80.5156579, "subtypes": "Urology clinic"}, {"name": "Dr. Satish Rangaswamy", "address": "535 Park St Suite 1, Kitchener, ON N2G 1N8", "city": "Kitchener", "state": "Ontario", "state_code": "", "phone": "+1 519-578-1294", "website": "http://urologyassociates.ca/", "rating": 4.7, "reviews": 15, "place_id": "ChIJ71qucN31K4gRB2E0FdLUoEc", "latitude": 43.4563257, "longitude": -80.5156579, "subtypes": "Urologist"}, {"name": "Dr. Sidney B. Radomski", "address": "399 Bathurst St, Toronto, ON M5T 2S8", "city": "Toronto", "state": "Ontario", "state_code": "", "phone": "+1 416-603-5713", "website": "", "rating": 3.8, "reviews": 25, "place_id": "ChIJPY7p_eg0K4gRYMd6tjKuDdY", "latitude": 43.6534115, "longitude": -79.405686, "subtypes": "Urologist"}, {"name": "Dr. Keith Barrett", "address": "Suite 202, 148 Manitou Dr #103, Kitchener, ON N2C 1L3", "city": "Kitchener", "state": "Ontario", "state_code": "", "phone": "+1 519-954-2370", "website": "", "rating": 2.6, "reviews": 23, "place_id": "ChIJA-fXOEOLK4gRoEeWYo4hPoc", "latitude": 43.4102497, "longitude": -80.4484236, "subtypes": "Urologist"}, {"name": "DR. TAEHYOUNG LEE", "address": "Suite 202, 148 Manitou Dr #103, Kitchener, ON N2C 1L3", "city": "Kitchener", "state": "Ontario", "state_code": "", "phone": "+1 519-954-2370", "website": "http://drleeurology.ca/", "rating": 1, "reviews": 1, "place_id": "ChIJHxRwHLaKK4gRWlBtBCyM0do", "latitude": 43.4102497, "longitude": -80.4484236, "subtypes": "Urologist"}, {"name": "Dr. Russell Blair Egerdie", "address": "450 Westheights Dr, Kitchener, ON N2N 1M2", "city": "Kitchener", "state": "Ontario", "state_code": "", "phone": "+1 519-578-1282", "website": "", "rating": 3, "reviews": 10, "place_id": "ChIJ71qucN31K4gRdI4KPVVCRnA", "latitude": 43.4176832, "longitude": -80.5358743, "subtypes": "Urologist"}, {"name": "Dr Karim Marzouk", "address": "2475 McDougall St, Windsor, ON N8X 3N9", "city": "Windsor", "state": "Ontario", "state_code": "", "phone": "+1 519-977-1001", "website": "", "rating": 4, "reviews": 22, "place_id": "ChIJW88Bdo0tO4gRQ0YNfnHybvI", "latitude": 42.2887514, "longitude": -83.0185977, "subtypes": "Urologist"}, {"name": "Khalaff H Dr", "address": "2475 McDougall St, Windsor, ON N8X 3N9", "city": "Windsor", "state": "Ontario", "state_code": "", "phone": "+1 519-971-0083", "website": "https://register.cpso.on.ca/physician-info/%3Fcpsonum%3D55154", "rating": 3.8, "reviews": 38, "place_id": "ChIJraFJ-V8sO4gRwWIuVHsytKQ", "latitude": 42.2887514, "longitude": -83.0185977, "subtypes": "Urologist"}, {"name": "Dr. Ryan McLarty", "address": "6160 Tecumseh Rd E suite 103, Windsor, ON N8T 1E6", "city": "Windsor", "state": "Ontario", "state_code": "", "phone": "+1 548-708-0059", "website": "", "rating": 4, "reviews": 8, "place_id": "ChIJBdnTXwArO4gRH2Ei9FyynJw", "latitude": 42.3111216, "longitude": -82.95107999999999, "subtypes": "Urologist"}, {"name": "600 Tecumseh s330 Urologist", "address": "139, 600 Tecumseh Rd E Suite 330, Windsor, ON N8X 4X9", "city": "Windsor", "state": "ON", "state_code": "", "phone": "", "website": "", "rating": "", "reviews": "", "place_id": "ChIJG6MVDAAtO4gROStodwfPDTQ", "latitude": 42.2986809, "longitude": -83.015576, "subtypes": "Urologist"}, {"name": "Urology Innovations Canada", "address": "123 Edward St Suite 1401, Toronto, ON M5G 1E2", "city": "Toronto", "state": "Ontario", "state_code": "", "phone": "", "website": "https://urologyinnovationscanada.com/", "rating": 5, "reviews": 3, "place_id": "ChIJvRRiGLo1K4gRIWSbJWN0IcM", "latitude": 43.6556377, "longitude": -79.38681079999999, "subtypes": "Urology clinic"}, {"name": "Dr. Kamal Mattar - Urology", "address": "726 Bloor St W #106, Toronto, ON M6G 1L4", "city": "Toronto", "state": "Ontario", "state_code": "", "phone": "+1 416-534-5621", "website": "https://tourology.ca/", "rating": 3.8, "reviews": 36, "place_id": "ChIJl72cN7A1K4gRmx8da0u6geE", "latitude": 43.6637618, "longitude": -79.418133, "subtypes": "Urologist"}, {"name": "Vasectomy Reversal & Fertility Clinic Center Dr Kirk Lo", "address": "Mount Sinai Hospital, 60 Murray St, Toronto, ON M5T 3L9", "city": "Toronto", "state": "Ontario", "state_code": "", "phone": "+1 416-586-4613", "website": "https://vasectomyreversal.ca/", "rating": 4.4, "reviews": 14, "place_id": "ChIJ1QxdYsg0K4gRlpiBXB3pA-Q", "latitude": 43.6580709, "longitude": -79.39175949999999, "subtypes": "Urologist"}, {"name": "Vaughan Urology Associates", "address": "2630 Rutherford Rd #201, Vaughan, ON L4K 0H2", "city": "Vaughan", "state": "Ontario", "state_code": "", "phone": "+1 905-832-8428", "website": "https://www.urosurg.ca/", "rating": 3, "reviews": 96, "place_id": "ChIJ98Q9ExYvK4gRgWlopT94P1g", "latitude": 43.8349851, "longitude": -79.5222191, "subtypes": "Urology clinic"}, {"name": "Urology Office", "address": "1235 Trafalgar Rd, Oakville, ON L6H 3P1", "city": "Oakville", "state": "Ontario", "state_code": "", "phone": "+1 905-842-1393", "website": "", "rating": 3.8, "reviews": 44, "place_id": "ChIJ1QmKkdlcK4gR10eDDYOOOyA", "latitude": 43.4674889, "longitude": -79.6903493, "subtypes": "Urology clinic"}, {"name": "Urology North", "address": "1221 Algonquin Ave Unit 304, North Bay, ON P1B 4Y3", "city": "North Bay", "state": "Ontario", "state_code": "", "phone": "+1 705-995-2490", "website": "http://urologynorth.ca/", "rating": 3.8, "reviews": 24, "place_id": "ChIJn9g4Zv0BKU0RhgC_6dgV54Y", "latitude": 46.3265815, "longitude": -79.4665663, "subtypes": "Urologist"}, {"name": "Dr. Jeannette Johnstone", "address": "304 Dundas St E, Belleville, ON K8N 1E6", "city": "Belleville", "state": "Ontario", "state_code": "", "phone": "+1 613-967-9900", "website": "", "rating": 4.3, "reviews": 15, "place_id": "ChIJvz7RsX8v1okRHVwNfBG_LdE", "latitude": 44.16454179999999, "longitude": -77.3633753, "subtypes": "Urology clinic"}, {"name": "Woods F A Edward Dr", "address": "393 Sidney St #3, Belleville, ON K8P 3Z9", "city": "Belleville", "state": "Ontario", "state_code": "", "phone": "+1 613-967-9797", "website": "", "rating": 4, "reviews": 23, "place_id": "ChIJ7Tckmj8l1okRhVcvDpLPMk8", "latitude": 44.1714444, "longitude": -77.4023804, "subtypes": "Urologist"}, {"name": "Dr. Roland Sing, Urologist", "address": "77 Queensway W Suite 310, Mississauga, ON L5B 1B7", "city": "Mississauga", "state": "Ontario", "state_code": "", "phone": "+1 416-551-7070", "website": "https://gentleprocedurestoronto.ca/", "rating": 5, "reviews": 20, "place_id": "ChIJ9f9LE7FyK4gRaybRQ80jRTI", "latitude": 43.5727687, "longitude": -79.6100712, "subtypes": "Urologist"}, {"name": "Gentle Procedures Mississauga - Vasectomy & Circumcision", "address": "77 Queensway W Suite 310, Mississauga, ON L5B 1B7", "city": "Mississauga", "state": "Ontario", "state_code": "", "phone": "+1 416-551-7070", "website": "https://www.gentleprocedurestoronto.ca/", "rating": 4.8, "reviews": 773, "place_id": "ChIJB6Aj0fZGK4gRaRcUIk6_SGA", "latitude": 43.5727687, "longitude": -79.6100712, "subtypes": "Urology clinic"}, {"name": "Dr. A. Joel Dagnone", "address": "101 Queensway W #400, Mississauga, ON L5B 2V2", "city": "Mississauga", "state": "Ontario", "state_code": "", "phone": "+1 416-622-2700", "website": "http://www.dagnoneurology.com/", "rating": 5, "reviews": 4, "place_id": "ChIJi06Z4_tHK4gRLX5ALCwVpQk", "latitude": 43.5722263, "longitude": -79.6107588, "subtypes": "Urology clinic"}, {"name": "Jamal Munir Dr", "address": "2000 Credit Valley Rd, Mississauga, ON L5M 4N4", "city": "Mississauga", "state": "Ontario", "state_code": "", "phone": "+1 905-607-6262", "website": "", "rating": 4.7, "reviews": 15, "place_id": "ChIJAc0oWIRBK4gRM_KgGjPFJZg", "latitude": 43.5621988, "longitude": -79.70219329999999, "subtypes": "Urologist"}, {"name": "Dr Hamidreza Abdi Urologist", "address": "40 Finchgate Blvd #214, Brampton, ON L6T 3J1", "city": "Brampton", "state": "Ontario", "state_code": "", "phone": "+1 905-799-8600", "website": "", "rating": 5, "reviews": 14, "place_id": "ChIJQeERRhY9K4gRiHhgtd40ZIA", "latitude": 43.728146, "longitude": -79.712008, "subtypes": "Urologist"}, {"name": "Dr. J. Giddens", "address": "18 Kensington Rd, Brampton, ON L6T 4S5", "city": "Brampton", "state": "Ontario", "state_code": "", "phone": "+1 905-874-0092", "website": "", "rating": 4.3, "reviews": 30, "place_id": "ChIJsZU3jME9K4gRglJD7_5pOcU", "latitude": 43.7225276, "longitude": -79.7175626, "subtypes": "Urologist"}, {"name": "DR. M. A. IBRAHIM", "address": "2120 N Park Dr SUITE 216, Brampton, ON L6S 0C9", "city": "Brampton", "state": "Ontario", "state_code": "", "phone": "+1 905-453-3251", "website": "", "rating": 2.8, "reviews": 13, "place_id": "ChIJ7-RMDK09K4gRcwEWLPO0Rio", "latitude": 43.7507317, "longitude": -79.7267995, "subtypes": "Urologist"}, {"name": "Dr Suman Chatterjee", "address": "2130 N Park Dr #247, Brampton, ON L6S 5M4", "city": "Brampton", "state": "Ontario", "state_code": "", "phone": "+1 905-595-1586", "website": "", "rating": 2.3, "reviews": 32, "place_id": "ChIJLWoDVVU9K4gRBs9RhOrB1YI", "latitude": 43.7496811, "longitude": -79.7265735, "subtypes": "Urologist"}, {"name": "Dr. Rami Elias", "address": "100 Humber College Blvd Suite 302, Etobicoke, ON M9V 5G4", "city": "Etobicoke", "state": "Ontario", "state_code": "", "phone": "+1 416-741-6060", "website": "https://register.cpso.on.ca/physician-info/%3Fcpsonum%3D92954", "rating": 4.5, "reviews": 49, "place_id": "ChIJVVVlr1Y6K4gRaXEXliWR40A", "latitude": 43.7314765, "longitude": -79.5991956, "subtypes": "Urologist"}, {"name": "Dr. Alaya Yassein", "address": "106A Guelph St, Georgetown, ON L7G 3Z9", "city": "Georgetown", "state": "Ontario", "state_code": "", "phone": "+1 905-901-5221", "website": "", "rating": 4.5, "reviews": 26, "place_id": "ChIJZRnI0Q8TK4gREIFee7c6y-E", "latitude": 43.6506896, "longitude": -79.91679959999999, "subtypes": "Urologist"}, {"name": "Dr. Kevin Kwan Urologist", "address": "311 Commercial St, Milton, ON L9T 3Z9", "city": "Milton", "state": "Ontario", "state_code": "", "phone": "+1 905-875-3920", "website": "https://www.haltonurology.com/", "rating": 2.7, "reviews": 39, "place_id": "ChIJRd8KMHRvK4gR7HMD1WbjLI0", "latitude": 43.5094164, "longitude": -79.8721863, "subtypes": "Urologist"}, {"name": "Dr. Taylor Remondini Urology", "address": "3075 Hospital Gate Unit 410, Oakville, ON L6M 1M1", "city": "Oakville", "state": "Ontario", "state_code": "", "phone": "+1 289-207-8332", "website": "https://register.cpso.on.ca/physician-info/%3Fcpsonum%3D112853", "rating": 4.4, "reviews": 7, "place_id": "ChIJ33ornCVnK4gR9YNbPpHSat4", "latitude": 43.4495497, "longitude": -79.7667398, "subtypes": "Urologist"}, {"name": "The Urology Wellness Centre Inc", "address": "Bayview Ave #218, Newmarket, ON L3X 1W1", "city": "Newmarket", "state": "Ontario", "state_code": "", "phone": "+1 905-960-9080", "website": "http://www.urologywellnesscentre.ca/", "rating": "", "reviews": "", "place_id": "ChIJlShhBA3TKogR_ZVfP9zlWDM", "latitude": 44.0403492, "longitude": -79.4528966, "subtypes": "Urology clinic"}, {"name": "Barrie Urology Group", "address": "1 Quarry Ridge Rd #206, Barrie, ON L4M 7G1", "city": "Barrie", "state": "Ontario", "state_code": "", "phone": "+1 705-728-2280", "website": "https://barrieurology.ca/", "rating": 4, "reviews": 25, "place_id": "ChIJZQFfoXmjKogRd4iZE7uafd8", "latitude": 44.4149498, "longitude": -79.6587184, "subtypes": "Urology clinic"}, {"name": "Dr Jerome A. Green", "address": "16700 Bayview Ave #218, Newmarket, ON L3X 1W1", "city": "Newmarket", "state": "Ontario", "state_code": "", "phone": "+1 905-836-5561", "website": "http://www.cpso.on.ca/DoctorDetails/Green-Jerome-Andrew/0161758-73544", "rating": 4.4, "reviews": 32, "place_id": "ChIJ3Ylmmj7SKogR43H53jLXdNg", "latitude": 44.0402464, "longitude": -79.4528784, "subtypes": "Urologist"}, {"name": "Mor Urology", "address": "16700 Bayview Ave, Newmarket, ON L3X 1W1", "city": "Newmarket", "state": "Ontario", "state_code": "", "phone": "+1 905-853-7468", "website": "https://urologywellnesscentre.ca/contact-us/", "rating": 2.8, "reviews": 5, "place_id": "ChIJT4zd8j7SKogR3HlLrSv8OEY", "latitude": 44.04025, "longitude": -79.45276539999999, "subtypes": "Urology clinic"}, {"name": "Maple Urology", "address": "2640 Rutherford Rd suite 202, Maple, ON L6A4N9", "city": "Maple", "state": "Ontario", "state_code": "", "phone": "+1 416-777-0404", "website": "https://mapleurology.ca/", "rating": 4.4, "reviews": 57, "place_id": "ChIJF4IVPVArK4gRK1_TlkAbdk8", "latitude": 43.8345729, "longitude": -79.5221025, "subtypes": "Urology clinic"}, {"name": "Barrie Circumcisions", "address": "1 Quarry Ridge Rd Suites 203, Barrie, ON L4M 7G1", "city": "Barrie", "state": "Ontario", "state_code": "", "phone": "+1 249-225-5096", "website": "http://www.barriecircumcisions.com/", "rating": 4.3, "reviews": 17, "place_id": "ChIJ6wBfoXmjKogRLw546pu4t4E", "latitude": 44.4152067, "longitude": -79.6588426, "subtypes": "Urology clinic"}, {"name": "Dr. Dylan Hoare - General and Reconstructive Urology", "address": "1 Quarry Ridge Rd Suite 203, Barrie, ON L4M 7G1", "city": "Barrie", "state": "Ontario", "state_code": "", "phone": "+1 705-727-0551", "website": "http://www.dylanhoaremd.ca/", "rating": 5, "reviews": 15, "place_id": "ChIJSYhDXvCjKogRVY22gk1BC1c", "latitude": 44.415031, "longitude": -79.6587199, "subtypes": "Urologist"}, {"name": "Dr. Morrie Liquornik", "address": "17120 Leslie St #2, Newmarket, ON L3Y 8K7", "city": "Newmarket", "state": "Ontario", "state_code": "", "phone": "+1 905-836-4696", "website": "http://www.southlakeregional.org/", "rating": 3.4, "reviews": 11, "place_id": "ChIJH9UBNwrSKogR8HxWBiF4yzA", "latitude": 44.05598759999999, "longitude": -79.43008189999999, "subtypes": "Urologist"}, {"name": "Richmond Hill Urology Practice and Prostate Institute", "address": "9755 Bathurst St, Richmond Hill, ON L4C 3X5", "city": "Richmond Hill", "state": "Ontario", "state_code": "", "phone": "+1 905-883-3666", "website": "http://www.richmondhillurology.com/", "rating": "", "reviews": "", "place_id": "ChIJN841AxQ2V0ARWYYmSoKWMWU", "latitude": 43.860247, "longitude": -79.4610057, "subtypes": "Urology clinic"}, {"name": "Dr. Samsoondar Urology", "address": "10168 Yonge St, Richmond Hill, ON L4C 1T6", "city": "Richmond Hill", "state": "Ontario", "state_code": "", "phone": "+1 905-737-4224", "website": "", "rating": 4.8, "reviews": 28, "place_id": "ChIJfboQvE0qK4gR5WL_Ig2gqpw", "latitude": 43.8754286, "longitude": -79.4383278, "subtypes": "Urologist"}, {"name": "Dr Victor Mak", "address": "22 Richmond St Unit 203, Richmond Hill, ON L4C 3Y1", "city": "Richmond Hill", "state": "Ontario", "state_code": "", "phone": "+1 905-770-0087", "website": "", "rating": 2.7, "reviews": 40, "place_id": "ChIJXRAZZk4qK4gR5H_j4w1LlvQ", "latitude": 43.8763803, "longitude": -79.4397311, "subtypes": "Urologist"}, {"name": "Guelph Urology Associates", "address": "89 Dawson Rd Unit 115, Guelph, ON N1H 1B1", "city": "Guelph", "state": "Ontario", "state_code": "", "phone": "+1 519-824-7272", "website": "http://www.guelphurology.ca/", "rating": 2.6, "reviews": 65, "place_id": "ChIJ-UtI5JiaK4gRRWGWE7AcbK4", "latitude": 43.5491235, "longitude": -80.2782715, "subtypes": "Urology clinic"}, {"name": "Meade W M MD", "address": "380 Burnham St #101, Peterborough, ON K9H 1T6", "city": "Peterborough", "state": "Ontario", "state_code": "", "phone": "+1 705-743-6480", "website": "http://www.kawarthaurology.com/", "rating": 5, "reviews": 10, "place_id": "ChIJewp_wMCM1YkRf3INISL9sB4", "latitude": 44.3052318, "longitude": -78.31152589999999, "subtypes": "Urologist"}, {"name": "Weir M J MD", "address": "380 Burnham St #101, Peterborough, ON K9H 1T6", "city": "Peterborough", "state": "Ontario", "state_code": "", "phone": "+1 705-743-6480", "website": "http://www.kawarthaurology.com/", "rating": 2.7, "reviews": 11, "place_id": "ChIJewp_wMCM1YkReJ8YBYdSXfI", "latitude": 44.3052318, "longitude": -78.31152589999999, "subtypes": "Urologist"}, {"name": "Mohamed El Harram, MD", "address": "707 Charlotte St, Peterborough, ON K9J 2X5", "city": "Peterborough", "state": "Ontario", "state_code": "", "phone": "+1 705-876-4506", "website": "", "rating": 3.8, "reviews": 12, "place_id": "ChIJXWZ5iVeM1YkRy9jW8r8YNDI", "latitude": 44.2999063, "longitude": -78.3405138, "subtypes": "Urologist"}, {"name": "ABNUS TECH, INC", "address": "270 George St N, Peterborough, ON K9J 7Z8", "city": "Peterborough", "state": "Ontario", "state_code": "", "phone": "", "website": "http://abnustech.ca/", "rating": "", "reviews": "", "place_id": "ChIJ8xPGb-mM1YkRFWW8qUGDfxs", "latitude": 44.3018882, "longitude": -78.3195693, "subtypes": "Urologist"}, {"name": "Dr. Yasser Noureldin", "address": "955 Queen St E Suite 305, Sault Ste. Marie, ON P6A 2C3", "city": "Sault Ste. Marie", "state": "Ontario", "state_code": "", "phone": "+1 705-575-0945", "website": "", "rating": "", "reviews": "", "place_id": "ChIJHfN31p4GYiMRwJdmFkolU9g", "latitude": 46.5051223, "longitude": -84.3185625, "subtypes": "Urologist"}, {"name": "Dr. Alvaro Ramirez - Urology", "address": "110 Water St, Sarnia, ON N7T 5T3", "city": "Sarnia", "state": "Ontario", "state_code": "", "phone": "+1 519-383-6427", "website": "http://www.sarniaurology.com/", "rating": 4.3, "reviews": 27, "place_id": "ChIJRzI5as-cJYgRe-neEA9oz1o", "latitude": 42.9814467, "longitude": -82.4035083, "subtypes": "Urology clinic"}, {"name": "Dr. Fernanda Gabrigna Berto- Urology", "address": "OPEN BY APPOINTMENT ONLY, 111 Heritage Rd #103, Chatham, ON N7M 5W7", "city": "Chatham", "state": "Ontario", "state_code": "", "phone": "+1 519-598-9207", "website": "https://sites.google.com/view/dr-fernanda-berto-urology/home", "rating": 4, "reviews": 4, "place_id": "ChIJRYxWhYv5L4gRDQDghhMMw0Y", "latitude": 42.3918827, "longitude": -82.2097108, "subtypes": "Urologist"}, {"name": "Niagara Urology Associates Inc.", "address": "3350 Merrittville Hwy Unit 2, Thorold, ON L2V 4Y6", "city": "Thorold", "state": "Ontario", "state_code": "", "phone": "+1 905-641-5556", "website": "", "rating": 4.2, "reviews": 5, "place_id": "ChIJ6bEXgRNP04kRrrUH1IxxgUY", "latitude": 43.1136778, "longitude": -79.2421609, "subtypes": "Urologist"}, {"name": "Dr. Britton E. Tisdale, MD", "address": "180 Vine St S #202, St. Catharines, ON L2R 7P3", "city": "St. Catharines", "state": "Ontario", "state_code": "", "phone": "+1 905-688-2761", "website": "", "rating": 3.7, "reviews": 27, "place_id": "ChIJle7SAm1R04kR4lmPi9nYVjw", "latitude": 43.1717857, "longitude": -79.2289943, "subtypes": "Urologist"}, {"name": "Dr. Michelle Chang", "address": "506 King St E, Cambridge, ON N3H 1N3", "city": "Cambridge", "state": "Ontario", "state_code": "", "phone": "+1 519-620-0707", "website": "", "rating": 3.9, "reviews": 14, "place_id": "ChIJX-i0Z_l3LIgR86OsTOUlDQs", "latitude": 43.3969196, "longitude": -80.3612105, "subtypes": "Urologist"}, {"name": "Niagara Urological Treatment Group", "address": "3350 Merrittville Hwy Unit 2, Thorold, ON L2V 4Y6", "city": "Thorold", "state": "Ontario", "state_code": "", "phone": "+1 905-296-3785", "website": "http://nutgroup.ca/", "rating": 5, "reviews": 1, "place_id": "ChIJOzoY9rxP04kRKctEhmP1kJ4", "latitude": 43.1136778, "longitude": -79.2421609, "subtypes": "Urology clinic"}, {"name": "Dr. Tom Song", "address": "3350 Merrittville Hwy Unit 2, Thorold, ON L2V 4Y6", "city": "Thorold", "state": "Ontario", "state_code": "", "phone": "+1 905-641-5556", "website": "", "rating": 4.4, "reviews": 10, "place_id": "ChIJ36WVqstP04kR7NC698T7W_M", "latitude": 43.1136778, "longitude": -79.2421609, "subtypes": "Urologist"}, {"name": "Dr. J.J. SHOEBRIDGE", "address": "3350 Merrittville Hwy Unit 2, Thorold, ON L2V 4Y6", "city": "Thorold", "state": "Ontario", "state_code": "", "phone": "+1 905-641-5556", "website": "", "rating": 5, "reviews": 7, "place_id": "ChIJIdvlASVP04kRiDPzrJIeK7g", "latitude": 43.1136778, "longitude": -79.2421609, "subtypes": "Urologist"}, {"name": "Dr. Marie S. Dion", "address": "3350 Merrittville Hwy Unit 2, Thorold, ON L2V 4Y6", "city": "Thorold", "state": "Ontario", "state_code": "", "phone": "+1 905-641-5556", "website": "", "rating": 3.8, "reviews": 10, "place_id": "ChIJUU-8-2ZP04kRnbNfP80Rt-o", "latitude": 43.1136778, "longitude": -79.2421609, "subtypes": "Urologist"}, {"name": "Dr. Pat Anderson", "address": "3350 Merrittville Hwy Unit 2, Thorold, ON L2V 4Y6", "city": "Thorold", "state": "Ontario", "state_code": "", "phone": "+1 905-641-5556", "website": "", "rating": 5, "reviews": 4, "place_id": "ChIJGzve4VhP04kRvqTNBFVDLPE", "latitude": 43.1136778, "longitude": -79.2421609, "subtypes": "Urologist"}, {"name": "Dr. Stephanie Tatzel", "address": "3350 Merrittville Hwy Unit 2, Thorold, ON L2V 4Y6", "city": "Thorold", "state": "Ontario", "state_code": "", "phone": "+1 905-641-5556", "website": "", "rating": 4.3, "reviews": 6, "place_id": "ChIJZbXKZAlP04kRsMN4ZVz-Aks", "latitude": 43.1136778, "longitude": -79.2421609, "subtypes": "Urologist"}, {"name": "Toronto Prostatitis Care Centre", "address": "243 Eglinton Ave W, Toronto, ON M4R 1B1", "city": "Toronto", "state": "Ontario", "state_code": "", "phone": "+1 416-892-1559", "website": "https://torontoprostatitis.ca/", "rating": 4.6, "reviews": 26, "place_id": "ChIJtTjEpVozK4gRK9VIL2n2ReE", "latitude": 43.7047153, "longitude": -79.406724, "subtypes": "Urology clinic"}, {"name": "TRT Canada", "address": "95 Wellington St W #2101, Toronto, ON M5H 1J8", "city": "Toronto", "state": "Ontario", "state_code": "", "phone": "", "website": "https://trtcanada.net/", "rating": 5, "reviews": 1, "place_id": "ChIJt6uwUpQ1K4gR0T9WTq4IrVM", "latitude": 43.6464528, "longitude": -79.3820391, "subtypes": "Urologist"}, {"name": "Umesh Jain MD", "address": "2425 Bloor St W Suite 501, Toronto, ON M6S 4W4", "city": "Toronto", "state": "Ontario", "state_code": "", "phone": "+1 416-767-0995", "website": "", "rating": 4.2, "reviews": 43, "place_id": "ChIJdYTZKog2K4gRo2qwC1ANfuw", "latitude": 43.649207, "longitude": -79.48363499999999, "subtypes": "Urologist"}, {"name": "Dr. Marco Bertucci", "address": "2333 Dundas St W #303, Toronto, ON M6R 3A6", "city": "Toronto", "state": "Ontario", "state_code": "", "phone": "+1 416-926-1777", "website": "http://www.torontovasectomyclinics.ca/", "rating": "", "reviews": "", "place_id": "ChIJNwW44zk0K4gRIPa_RTMlQXc", "latitude": 43.6559519, "longitude": -79.4528272, "subtypes": "Urologist"}, {"name": "Dr. Punnamkuzhil Chandy Punnen", "address": "960 Lawrence Ave W, North York, ON M6A 3B5", "city": "North York", "state": "Ontario", "state_code": "", "phone": "+1 416-256-9097", "website": "", "rating": "", "reviews": "", "place_id": "ChIJiaa7bM8zK4gRANSfDVv5Axc", "latitude": 43.7138879, "longitude": -79.45753169999999, "subtypes": "Urologist"}, {"name": "Noakes J E Dr", "address": "4430 Bathurst St, North York, ON M3H 3S3", "city": "North York", "state": "Ontario", "state_code": "", "phone": "+1 416-630-3174", "website": "", "rating": 2.5, "reviews": 30, "place_id": "ChIJ8TZfsncyK4gRNWrXgBxiHxg", "latitude": 43.7570041, "longitude": -79.4393101, "subtypes": "Urologist"}, {"name": "Dr Simon Skeldon", "address": "190 Sherway Dr, Etobicoke, ON M9C 5N6", "city": "CA", "state": "Ontario", "state_code": "", "phone": "+1 416-620-1685", "website": "https://register.cpso.on.ca/physician-info/%3Fcpsonum%3D51779", "rating": 2.5, "reviews": 8, "place_id": "ChIJUZbw_wdIK4gRDAuPFhtfAMA", "latitude": 43.6090143, "longitude": -79.56033579999999, "subtypes": "Urologist"}, {"name": "Dr. John Morrell, MD", "address": "100 Humber College Blvd, Etobicoke, ON M9V 5G4", "city": "Etobicoke", "state": "Ontario", "state_code": "", "phone": "+1 416-747-1591", "website": "", "rating": 3.4, "reviews": 28, "place_id": "ChIJSep_q1Y6K4gRGEBUTL7Mpbc", "latitude": 43.7314765, "longitude": -79.5991956, "subtypes": "Urologist"}, {"name": "Dr. Pierre Urology", "address": "Suite 250, 1130 Morrison Dr, Ottawa, ON K2H 9N6", "city": "Ottawa", "state": "Ontario", "state_code": "", "phone": "+1 613-221-9200", "website": "https://www.drpierreurology.com/", "rating": 5, "reviews": 8, "place_id": "ChIJp_v-gsoBzkwR_yECtao6znc", "latitude": 45.3456198, "longitude": -75.79670159999999, "subtypes": "Urologist"}, {"name": "Superior Urology clinic", "address": "146 Court St S, Thunder Bay, ON P7B 2X6", "city": "Thunder Bay", "state": "Ontario", "state_code": "", "phone": "+1 807-285-9292", "website": "http://www.superiorurology.ca/", "rating": 4.1, "reviews": 24, "place_id": "ChIJveVH91YjWU0RQ_K5LICaSl0", "latitude": 48.43068299999999, "longitude": -89.227541, "subtypes": "Urology clinic"}, {"name": "Dr. Kirsten Foell", "address": "1 Quarry Ridge Rd, Barrie, ON L4M 7G1", "city": "Barrie", "state": "Ontario", "state_code": "", "phone": "+1 705-915-3800", "website": "", "rating": 5, "reviews": 1, "place_id": "ChIJ6wCXqJGjKogRpkKFmoPAknI", "latitude": 44.4151385, "longitude": -79.65883079999999, "subtypes": "Urologist"}, {"name": "Dr. Edward Matsumoto", "address": "50 Charlton Ave E, Hamilton, ON L8N 4A6", "city": "Hamilton", "state": "Ontario", "state_code": "", "phone": "+1 905-522-1155", "website": "http://www.stjoes.ca/hospital-services/kidney-urinary-services/mcmaster-institute-of-urology", "rating": 4.9, "reviews": 22, "place_id": "ChIJnxpEv56bLIgRh9VjZmbx98w", "latitude": 43.2485339, "longitude": -79.8713511, "subtypes": "Urologist"}, {"name": "Dynamiq Urology", "address": "726 Upper James St, Hamilton, ON L9C 2Z9", "city": "Hamilton", "state": "Ontario", "state_code": "", "phone": "+1 833-396-2647", "website": "https://dynamiqurology.com/%3Futm_source%3Dorganic%26utm_medium%3Dgoogle%26utm_campaign%3Dgbp", "rating": 4.9, "reviews": 32, "place_id": "ChIJ0Wy44JmbLIgRBb_joqjbabM", "latitude": 43.2311572, "longitude": -79.88104299999999, "subtypes": "Urology clinic"}, {"name": "Dr. Kevin Piercey", "address": "50 Charlton Ave E, Hamilton, ON L8N 4A6", "city": "Hamilton", "state": "Ontario", "state_code": "", "phone": "+1 905-522-1155", "website": "http://www.stjoes.ca/contact", "rating": 4.6, "reviews": 11, "place_id": "ChIJnxpEv56bLIgR7T65qNZ3oQI", "latitude": 43.24835119999999, "longitude": -79.87124589999999, "subtypes": "Urologist"}, {"name": "Fischer Marc Anthony Dr", "address": "1 Young St, Hamilton, ON L8N 1T8", "city": "Hamilton", "state": "Ontario", "state_code": "", "phone": "+1 905-529-5910", "website": "", "rating": 4.1, "reviews": 28, "place_id": "ChIJbclhMZybLIgRUtf8LC2bVAc", "latitude": 43.2514377, "longitude": -79.8709796, "subtypes": "Urologist"}, {"name": "Brock Urology", "address": "373 Commissioners Rd W, London, ON N6J 1Y4", "city": "London", "state": "Ontario", "state_code": "", "phone": "+1 519-685-5559", "website": "https://www.brockurology.com/", "rating": 3.2, "reviews": 9, "place_id": "ChIJ-RaokszvLogRngla1Dg22I0", "latitude": 42.9562597, "longitude": -81.28094519999999, "subtypes": "Urology clinic"}, {"name": "Dr. Josef Vladars", "address": "130 Thompson Rd, London, ON N5Y 2Y6", "city": "London", "state": "Ontario", "state_code": "", "phone": "+1 519-601-8621", "website": "http://thompsonmedical.ca/dr-josef-vladars/", "rating": 4.9, "reviews": 13, "place_id": "ChIJuXMkvEbyLogRse0iGRHDglc", "latitude": 42.9677921, "longitude": -81.2254143, "subtypes": "Urologist"}, {"name": "Doctor Chin, Joseph - Urology", "address": "London, ON N6C 2R6", "city": "London", "state": "Ontario", "state_code": "", "phone": "+1 519-685-8451", "website": "https://www.southwesthealthline.ca/displayservice.aspx%3Fid%3D169185", "rating": "", "reviews": "", "place_id": "ChIJh3wf0k7yLogR9YbgZHJAk38", "latitude": 42.9608861, "longitude": -81.224013, "subtypes": "Urology clinic"}, {"name": "Dr. Hassan Razvi", "address": "268 Grosvenor St, London, ON N6A 3N3", "city": "London", "state": "Ontario", "state_code": "", "phone": "+1 519-646-6259", "website": "http://www.uwo.ca/", "rating": 2.8, "reviews": 6, "place_id": "ChIJP_5HNgfuLogRoYNY28BMlPw", "latitude": 43.0009118, "longitude": -81.25479519999999, "subtypes": "Urologist"}, {"name": "Dr. Jonathan E. Chan Urologic Surgeon \u2022 NanoKnife \u2022 Rezum \u2022 ExactVu Micro-Ultrasound \u2022 MRI Prostate Biopsy \u2022 PhalloFILL", "address": "385 Silver Star Blvd Suite 308, Toronto, ON M1V 0E3", "city": "Toronto", "state": "Ontario", "state_code": "", "phone": "+1 647-776-3383", "website": "https://www.atriumsurgical.ca/prostate/", "rating": 4.6, "reviews": 151, "place_id": "ChIJSdKvaJDT1IkRmLKPQD5GOIA", "latitude": 43.8151507, "longitude": -79.2952327, "subtypes": "Urologist"}, {"name": "Vaughan Urology Associates", "address": "2630 Rutherford Rd #201, Vaughan, ON L4K 0H2", "city": "Vaughan", "state": "Ontario", "state_code": "", "phone": "+1 905-832-8428", "website": "https://www.urosurg.ca/", "rating": 3, "reviews": 96, "place_id": "ChIJ98Q9ExYvK4gRgWlopT94P1g", "latitude": 43.8349851, "longitude": -79.5222191, "subtypes": "Urology clinic"}, {"name": "Dr. Kamal Mattar - Urology", "address": "726 Bloor St W #106, Toronto, ON M6G 1L4", "city": "Toronto", "state": "Ontario", "state_code": "", "phone": "+1 416-534-5621", "website": "https://tourology.ca/", "rating": 3.8, "reviews": 36, "place_id": "ChIJl72cN7A1K4gRmx8da0u6geE", "latitude": 43.6637618, "longitude": -79.418133, "subtypes": "Urologist"}, {"name": "Umesh Jain MD", "address": "2425 Bloor St W Suite 501, Toronto, ON M6S 4W4", "city": "Toronto", "state": "Ontario", "state_code": "", "phone": "+1 416-767-0995", "website": "", "rating": 4.2, "reviews": 43, "place_id": "ChIJdYTZKog2K4gRo2qwC1ANfuw", "latitude": 43.649207, "longitude": -79.48363499999999, "subtypes": "Urologist"}, {"name": "Vaughan Urology Associates", "address": "2630 Rutherford Rd #201, Vaughan, ON L4K 0H2", "city": "Vaughan", "state": "Ontario", "state_code": "", "phone": "+1 905-832-8428", "website": "https://www.urosurg.ca/", "rating": 3, "reviews": 96, "place_id": "ChIJ98Q9ExYvK4gRgWlopT94P1g", "latitude": 43.8349851, "longitude": -79.5222191, "subtypes": "Urology clinic"}, {"name": "Dr. Dean Elterman", "address": "399 Bathurst St, Toronto, ON M5T 2S8", "city": "Toronto", "state": "Ontario", "state_code": "", "phone": "+1 416-603-5800", "website": "http://uuaurology.com/doctors/dean-elterman/", "rating": 2.8, "reviews": 28, "place_id": "ChIJPY7p_eg0K4gRebVEoWtOPws", "latitude": 43.6534547, "longitude": -79.40596099999999, "subtypes": "Urologist"}, {"name": "University Urology Associates", "address": "123 Edward St, Toronto, ON M5G 1E2", "city": "Toronto", "state": "Ontario", "state_code": "", "phone": "+1 416-979-9000", "website": "http://uuaurology.com/", "rating": 2.5, "reviews": 13, "place_id": "ChIJCU_naMk0K4gRnF-BqXDE0Fc", "latitude": 43.655638, "longitude": -79.386811, "subtypes": "Urologist"}, {"name": "University Urology Associates", "address": "123 Edward St, Toronto, ON M5G 1E2", "city": "Toronto", "state": "Ontario", "state_code": "", "phone": "+1 416-979-9000", "website": "http://uuaurology.com/", "rating": 2.5, "reviews": 13, "place_id": "ChIJCU_naMk0K4gRnF-BqXDE0Fc", "latitude": 43.655638, "longitude": -79.386811, "subtypes": "Urologist"}, {"name": "Dr. Dean Elterman", "address": "399 Bathurst St, Toronto, ON M5T 2S8", "city": "Toronto", "state": "Ontario", "state_code": "", "phone": "+1 416-603-5800", "website": "http://uuaurology.com/doctors/dean-elterman/", "rating": 2.8, "reviews": 28, "place_id": "ChIJPY7p_eg0K4gRebVEoWtOPws", "latitude": 43.6534547, "longitude": -79.40596099999999, "subtypes": "Urologist"}, {"name": "Dr. Michelle Chang", "address": "506 King St E, Cambridge, ON N3H 1N3", "city": "Cambridge", "state": "Ontario", "state_code": "", "phone": "+1 519-620-0707", "website": "", "rating": 3.9, "reviews": 14, "place_id": "ChIJX-i0Z_l3LIgR86OsTOUlDQs", "latitude": 43.3969196, "longitude": -80.3612105, "subtypes": "Urologist"}, {"name": "Dr. Jonathan E. Chan Urologic Surgeon \u2022 NanoKnife \u2022 Rezum \u2022 ExactVu Micro-Ultrasound \u2022 MRI Prostate Biopsy \u2022 PhalloFILL", "address": "385 Silver Star Blvd Suite 308, Toronto, ON M1V 0E3", "city": "Toronto", "state": "Ontario", "state_code": "", "phone": "+1 647-776-3383", "website": "https://www.atriumsurgical.ca/prostate/", "rating": 4.6, "reviews": 151, "place_id": "ChIJSdKvaJDT1IkRmLKPQD5GOIA", "latitude": 43.8151507, "longitude": -79.2952327, "subtypes": "Urologist"}, {"name": "University Urology Associates", "address": "123 Edward St, Toronto, ON M5G 1E2", "city": "Toronto", "state": "Ontario", "state_code": "", "phone": "+1 416-979-9000", "website": "http://uuaurology.com/", "rating": 2.5, "reviews": 13, "place_id": "ChIJCU_naMk0K4gRnF-BqXDE0Fc", "latitude": 43.655638, "longitude": -79.386811, "subtypes": "Urologist"}, {"name": "Dr. Dean Elterman", "address": "399 Bathurst St, Toronto, ON M5T 2S8", "city": "Toronto", "state": "Ontario", "state_code": "", "phone": "+1 416-603-5800", "website": "http://uuaurology.com/doctors/dean-elterman/", "rating": 2.8, "reviews": 28, "place_id": "ChIJPY7p_eg0K4gRebVEoWtOPws", "latitude": 43.6534547, "longitude": -79.40596099999999, "subtypes": "Urologist"}, {"name": "Vaughan Urology Associates", "address": "2630 Rutherford Rd #201, Vaughan, ON L4K 0H2", "city": "Vaughan", "state": "Ontario", "state_code": "", "phone": "+1 905-832-8428", "website": "https://www.urosurg.ca/", "rating": 3, "reviews": 96, "place_id": "ChIJ98Q9ExYvK4gRgWlopT94P1g", "latitude": 43.8349851, "longitude": -79.5222191, "subtypes": "Urology clinic"}, {"name": "Dr Karim Marzouk", "address": "2475 McDougall St, Windsor, ON N8X 3N9", "city": "Windsor", "state": "Ontario", "state_code": "", "phone": "+1 519-977-1001", "website": "", "rating": 4, "reviews": 22, "place_id": "ChIJW88Bdo0tO4gRQ0YNfnHybvI", "latitude": 42.2887514, "longitude": -83.0185977, "subtypes": "Urologist"}, {"name": "Khalaff H Dr", "address": "2475 McDougall St, Windsor, ON N8X 3N9", "city": "Windsor", "state": "Ontario", "state_code": "", "phone": "+1 519-971-0083", "website": "https://register.cpso.on.ca/physician-info/%3Fcpsonum%3D55154", "rating": 3.8, "reviews": 38, "place_id": "ChIJraFJ-V8sO4gRwWIuVHsytKQ", "latitude": 42.2887514, "longitude": -83.0185977, "subtypes": "Urologist"}, {"name": "Dr. Ryan McLarty", "address": "6160 Tecumseh Rd E suite 103, Windsor, ON N8T 1E6", "city": "Windsor", "state": "Ontario", "state_code": "", "phone": "+1 548-708-0059", "website": "", "rating": 4, "reviews": 8, "place_id": "ChIJBdnTXwArO4gRH2Ei9FyynJw", "latitude": 42.3111216, "longitude": -82.95107999999999, "subtypes": "Urologist"}, {"name": "Urology Innovations Canada", "address": "123 Edward St Suite 1401, Toronto, ON M5G 1E2", "city": "Toronto", "state": "Ontario", "state_code": "", "phone": "", "website": "https://urologyinnovationscanada.com/", "rating": 5, "reviews": 3, "place_id": "ChIJvRRiGLo1K4gRIWSbJWN0IcM", "latitude": 43.6556377, "longitude": -79.38681079999999, "subtypes": "Urology clinic"}, {"name": "University Urology Associates", "address": "123 Edward St, Toronto, ON M5G 1E2", "city": "Toronto", "state": "Ontario", "state_code": "", "phone": "+1 416-979-9000", "website": "http://uuaurology.com/", "rating": 2.5, "reviews": 13, "place_id": "ChIJCU_naMk0K4gRnF-BqXDE0Fc", "latitude": 43.655638, "longitude": -79.386811, "subtypes": "Urologist"}, {"name": "Dr. Sidney B. Radomski", "address": "399 Bathurst St, Toronto, ON M5T 2S8", "city": "Toronto", "state": "Ontario", "state_code": "", "phone": "+1 416-603-5713", "website": "", "rating": 3.8, "reviews": 25, "place_id": "ChIJPY7p_eg0K4gRYMd6tjKuDdY", "latitude": 43.6534115, "longitude": -79.405686, "subtypes": "Urologist"}, {"name": "Dr. Dean Elterman", "address": "399 Bathurst St, Toronto, ON M5T 2S8", "city": "Toronto", "state": "Ontario", "state_code": "", "phone": "+1 416-603-5800", "website": "http://uuaurology.com/doctors/dean-elterman/", "rating": 2.8, "reviews": 28, "place_id": "ChIJPY7p_eg0K4gRebVEoWtOPws", "latitude": 43.6534547, "longitude": -79.40596099999999, "subtypes": "Urologist"}, {"name": "Vaughan Urology Associates", "address": "2630 Rutherford Rd #201, Vaughan, ON L4K 0H2", "city": "Vaughan", "state": "Ontario", "state_code": "", "phone": "+1 905-832-8428", "website": "https://www.urosurg.ca/", "rating": 3, "reviews": 96, "place_id": "ChIJ98Q9ExYvK4gRgWlopT94P1g", "latitude": 43.8349851, "longitude": -79.5222191, "subtypes": "Urology clinic"}, {"name": "Guelph Urology Associates", "address": "89 Dawson Rd Unit 115, Guelph, ON N1H 1B1", "city": "Guelph", "state": "Ontario", "state_code": "", "phone": "+1 519-824-7272", "website": "http://www.guelphurology.ca/", "rating": 2.6, "reviews": 65, "place_id": "ChIJ-UtI5JiaK4gRRWGWE7AcbK4", "latitude": 43.5491235, "longitude": -80.2782715, "subtypes": "Urology clinic"}, {"name": "Dr. Sidney B. Radomski", "address": "399 Bathurst St, Toronto, ON M5T 2S8", "city": "Toronto", "state": "Ontario", "state_code": "", "phone": "+1 416-603-5713", "website": "", "rating": 3.8, "reviews": 25, "place_id": "ChIJPY7p_eg0K4gRYMd6tjKuDdY", "latitude": 43.6534115, "longitude": -79.405686, "subtypes": "Urologist"}, {"name": "Dr. Dean Elterman", "address": "399 Bathurst St, Toronto, ON M5T 2S8", "city": "Toronto", "state": "Ontario", "state_code": "", "phone": "+1 416-603-5800", "website": "http://uuaurology.com/doctors/dean-elterman/", "rating": 2.8, "reviews": 28, "place_id": "ChIJPY7p_eg0K4gRebVEoWtOPws", "latitude": 43.6534547, "longitude": -79.40596099999999, "subtypes": "Urologist"}, {"name": "University Urology Associates", "address": "123 Edward St, Toronto, ON M5G 1E2", "city": "Toronto", "state": "Ontario", "state_code": "", "phone": "+1 416-979-9000", "website": "http://uuaurology.com/", "rating": 2.5, "reviews": 13, "place_id": "ChIJCU_naMk0K4gRnF-BqXDE0Fc", "latitude": 43.655638, "longitude": -79.386811, "subtypes": "Urologist"}, {"name": "Dr. Dean Elterman", "address": "399 Bathurst St, Toronto, ON M5T 2S8", "city": "Toronto", "state": "Ontario", "state_code": "", "phone": "+1 416-603-5800", "website": "http://uuaurology.com/doctors/dean-elterman/", "rating": 2.8, "reviews": 28, "place_id": "ChIJPY7p_eg0K4gRebVEoWtOPws", "latitude": 43.6534547, "longitude": -79.40596099999999, "subtypes": "Urologist"}, {"name": "Vaughan Urology Associates", "address": "2630 Rutherford Rd #201, Vaughan, ON L4K 0H2", "city": "Vaughan", "state": "Ontario", "state_code": "", "phone": "+1 905-832-8428", "website": "https://www.urosurg.ca/", "rating": 3, "reviews": 96, "place_id": "ChIJ98Q9ExYvK4gRgWlopT94P1g", "latitude": 43.8349851, "longitude": -79.5222191, "subtypes": "Urology clinic"}, {"name": "Urology Office", "address": "1235 Trafalgar Rd, Oakville, ON L6H 3P1", "city": "Oakville", "state": "Ontario", "state_code": "", "phone": "+1 905-842-1393", "website": "", "rating": 3.8, "reviews": 44, "place_id": "ChIJ1QmKkdlcK4gR10eDDYOOOyA", "latitude": 43.4674889, "longitude": -79.6903493, "subtypes": "Urology clinic"}, {"name": "Dr. Sidney B. Radomski", "address": "399 Bathurst St, Toronto, ON M5T 2S8", "city": "Toronto", "state": "Ontario", "state_code": "", "phone": "+1 416-603-5713", "website": "", "rating": 3.8, "reviews": 25, "place_id": "ChIJPY7p_eg0K4gRYMd6tjKuDdY", "latitude": 43.6534115, "longitude": -79.405686, "subtypes": "Urologist"}, {"name": "Dr. Jonathan E. Chan Urologic Surgeon \u2022 NanoKnife \u2022 Rezum \u2022 ExactVu Micro-Ultrasound \u2022 MRI Prostate Biopsy \u2022 PhalloFILL", "address": "385 Silver Star Blvd Suite 308, Toronto, ON M1V 0E3", "city": "Toronto", "state": "Ontario", "state_code": "", "phone": "+1 647-776-3383", "website": "https://www.atriumsurgical.ca/prostate/", "rating": 4.6, "reviews": 151, "place_id": "ChIJSdKvaJDT1IkRmLKPQD5GOIA", "latitude": 43.8151507, "longitude": -79.2952327, "subtypes": "Urologist"}, {"name": "Dr. Andrew Hussey", "address": "342 Erie St, Stratford, ON N5A 2M7", "city": "Stratford", "state": "Ontario", "state_code": "", "phone": "+1 519-271-7900", "website": "", "rating": 3.2, "reviews": 9, "place_id": "ChIJ76fsGPitLogRAM34U5OIUMk", "latitude": 43.3637125, "longitude": -80.9899421, "subtypes": "Urologist"}, {"name": "University Urology Associates", "address": "123 Edward St, Toronto, ON M5G 1E2", "city": "Toronto", "state": "Ontario", "state_code": "", "phone": "+1 416-979-9000", "website": "http://uuaurology.com/", "rating": 2.5, "reviews": 13, "place_id": "ChIJCU_naMk0K4gRnF-BqXDE0Fc", "latitude": 43.655638, "longitude": -79.386811, "subtypes": "Urologist"}, {"name": "Guelph Urology Associates", "address": "89 Dawson Rd Unit 115, Guelph, ON N1H 1B1", "city": "Guelph", "state": "Ontario", "state_code": "", "phone": "+1 519-824-7272", "website": "http://www.guelphurology.ca/", "rating": 2.6, "reviews": 65, "place_id": "ChIJ-UtI5JiaK4gRRWGWE7AcbK4", "latitude": 43.5491235, "longitude": -80.2782715, "subtypes": "Urology clinic"}, {"name": "University Urology Associates", "address": "123 Edward St, Toronto, ON M5G 1E2", "city": "Toronto", "state": "Ontario", "state_code": "", "phone": "+1 416-979-9000", "website": "http://uuaurology.com/", "rating": 2.5, "reviews": 13, "place_id": "ChIJCU_naMk0K4gRnF-BqXDE0Fc", "latitude": 43.655638, "longitude": -79.386811, "subtypes": "Urologist"}, {"name": "Dr. Dean Elterman", "address": "399 Bathurst St, Toronto, ON M5T 2S8", "city": "Toronto", "state": "Ontario", "state_code": "", "phone": "+1 416-603-5800", "website": "http://uuaurology.com/doctors/dean-elterman/", "rating": 2.8, "reviews": 28, "place_id": "ChIJPY7p_eg0K4gRebVEoWtOPws", "latitude": 43.6534547, "longitude": -79.40596099999999, "subtypes": "Urologist"}, {"name": "Smith Steven Dr", "address": "95 Bayly St W, Ajax, ON L1S 7K8", "city": "Ajax", "state": "Ontario", "state_code": "", "phone": "+1 905-426-9426", "website": "", "rating": 4.1, "reviews": 14, "place_id": "ChIJbYVO5Nnf1IkRWpmpaW6uOVs", "latitude": 43.84223009999999, "longitude": -79.02100539999999, "subtypes": "Urologist"}, {"name": "Dr. Satish Rangaswamy", "address": "535 Park St Suite 1, Kitchener, ON N2G 1N8", "city": "Kitchener", "state": "Ontario", "state_code": "", "phone": "+1 519-578-1294", "website": "http://urologyassociates.ca/", "rating": 4.7, "reviews": 15, "place_id": "ChIJ71qucN31K4gRB2E0FdLUoEc", "latitude": 43.4563257, "longitude": -80.5156579, "subtypes": "Urologist"}, {"name": "A. Grabowski", "address": "95 Bayly St W, Ajax, ON L1S 3V4", "city": "Ajax", "state": "Ontario", "state_code": "", "phone": "+1 905-426-9426", "website": "", "rating": 3.6, "reviews": 15, "place_id": "ChIJDWnN5dnf1IkRYFIw7JZAJdw", "latitude": 43.8423765, "longitude": -79.02125079999999, "subtypes": "Urologist"}, {"name": "Kitchener Urology Partners", "address": "Suite 202, 148 Manitou Dr, Kitchener, ON N2C 1L3", "city": "Kitchener", "state": "Ontario", "state_code": "", "phone": "+1 519-954-2370", "website": "", "rating": 2.4, "reviews": 68, "place_id": "ChIJCXmsBGf0K4gRq4uVDSbfwlE", "latitude": 43.4102497, "longitude": -80.4484236, "subtypes": "Urology clinic"}, {"name": "Umesh Jain MD", "address": "2425 Bloor St W Suite 501, Toronto, ON M6S 4W4", "city": "Toronto", "state": "Ontario", "state_code": "", "phone": "+1 416-767-0995", "website": "", "rating": 4.2, "reviews": 43, "place_id": "ChIJdYTZKog2K4gRo2qwC1ANfuw", "latitude": 43.649207, "longitude": -79.48363499999999, "subtypes": "Urologist"}, {"name": "Dr. Kamal Mattar - Urology", "address": "726 Bloor St W #106, Toronto, ON M6G 1L4", "city": "Toronto", "state": "Ontario", "state_code": "", "phone": "+1 416-534-5621", "website": "https://tourology.ca/", "rating": 3.8, "reviews": 36, "place_id": "ChIJl72cN7A1K4gRmx8da0u6geE", "latitude": 43.6637618, "longitude": -79.418133, "subtypes": "Urologist"}, {"name": "Dr. Marco Bertucci", "address": "2333 Dundas St W #303, Toronto, ON M6R 3A6", "city": "Toronto", "state": "Ontario", "state_code": "", "phone": "+1 416-926-1777", "website": "http://www.torontovasectomyclinics.ca/", "rating": "", "reviews": "", "place_id": "ChIJNwW44zk0K4gRIPa_RTMlQXc", "latitude": 43.6559519, "longitude": -79.4528272, "subtypes": "Urologist"}, {"name": "Dr. Jonathan E. Chan Urologic Surgeon \u2022 NanoKnife \u2022 Rezum \u2022 ExactVu Micro-Ultrasound \u2022 MRI Prostate Biopsy \u2022 PhalloFILL", "address": "385 Silver Star Blvd Suite 308, Toronto, ON M1V 0E3", "city": "Toronto", "state": "Ontario", "state_code": "", "phone": "+1 647-776-3383", "website": "https://www.atriumsurgical.ca/prostate/", "rating": 4.6, "reviews": 151, "place_id": "ChIJSdKvaJDT1IkRmLKPQD5GOIA", "latitude": 43.8151507, "longitude": -79.2952327, "subtypes": "Urologist"}]